[
  {
    "aId": 1,
    "aIdServer": 57,
    "aCode": "2",
    "aFkClientId": 29,
    "aFkClientAppliId": 67,
    "aFkCheminId": 80,
    "aFkCheminAppliId": 43,
    "aPays": "China",
    "aPrenom": "Brosini",
    "aNom": "Daune",
    "aSociete": "85.85.64.68",
    "aAdresse": "3982 Walton Street",
    "aCodePostal": null,
    "aFrDept": 26,
    "aVille": "65.48.58.161",
    "aRegion": "Wordify",
    "aLong": "111.67976",
    "aLat": "29.01937",
    "aLocM": "48.9333"
  }, {
    "aId": 2,
    "aIdServer": 40,
    "aCode": "17695",
    "aFkClientId": 92,
    "aFkClientAppliId": 6,
    "aFkCheminId": 37,
    "aFkCheminAppliId": 66,
    "aPays": "Brazil",
    "aPrenom": "Isaacs",
    "aNom": "Meggy",
    "aSociete": "33.69.102.222",
    "aAdresse": "19 Mayer Lane",
    "aCodePostal": "11660-000",
    "aFrDept": 35,
    "aVille": "136.122.15.65",
    "aRegion": "Dablist",
    "aLong": "-45.41306",
    "aLat": "-23.62028",
    "aLocM": "37.23136"
  }, {
    "aId": 3,
    "aIdServer": 68,
    "aCode": "82",
    "aFkClientId": 94,
    "aFkClientAppliId": 32,
    "aFkCheminId": 77,
    "aFkCheminAppliId": 37,
    "aPays": "Indonesia",
    "aPrenom": "Glassman",
    "aNom": "Carroll",
    "aSociete": "70.40.51.99",
    "aAdresse": "696 Brentwood Center",
    "aCodePostal": null,
    "aFrDept": 85,
    "aVille": "250.143.184.78",
    "aRegion": "Twinder",
    "aLong": "95.958",
    "aLat": "4.3105",
    "aLocM": "24.48912"
  }, {
    "aId": 4,
    "aIdServer": 38,
    "aCode": "1",
    "aFkClientId": 24,
    "aFkClientAppliId": 96,
    "aFkCheminId": 95,
    "aFkCheminAppliId": 34,
    "aPays": "Indonesia",
    "aPrenom": "Brind",
    "aNom": "Carter",
    "aSociete": "255.11.24.221",
    "aAdresse": "616 Wayridge Circle",
    "aCodePostal": null,
    "aFrDept": 59,
    "aVille": "210.211.54.130",
    "aRegion": "Browsezoom",
    "aLong": "112.6122",
    "aLat": "-8.0639",
    "aLocM": "46.16988"
  }, {
    "aId": 5,
    "aIdServer": 45,
    "aCode": "91",
    "aFkClientId": 34,
    "aFkClientAppliId": 49,
    "aFkCheminId": 98,
    "aFkCheminAppliId": 30,
    "aPays": "Indonesia",
    "aPrenom": "Kerkham",
    "aNom": "Marris",
    "aSociete": "214.236.59.101",
    "aAdresse": "0 Onsgard Pass",
    "aCodePostal": null,
    "aFrDept": 86,
    "aVille": "196.35.127.227",
    "aRegion": "Avaveo",
    "aLong": "106.834",
    "aLat": "-7.1934",
    "aLocM": "30.2906"
  }, {
    "aId": 6,
    "aIdServer": 9,
    "aCode": "47067",
    "aFkClientId": 83,
    "aFkClientAppliId": 35,
    "aFkCheminId": 42,
    "aFkCheminAppliId": 63,
    "aPays": "China",
    "aPrenom": "Maystone",
    "aNom": "Alvis",
    "aSociete": "66.186.222.174",
    "aAdresse": "794 Bellgrove Park",
    "aCodePostal": null,
    "aFrDept": 31,
    "aVille": "85.9.65.204",
    "aRegion": "Quimm",
    "aLong": "111.19933",
    "aLat": "35.46997",
    "aLocM": "19.0942"
  }, {
    "aId": 7,
    "aIdServer": 37,
    "aCode": "91",
    "aFkClientId": 40,
    "aFkClientAppliId": 94,
    "aFkCheminId": 91,
    "aFkCheminAppliId": 25,
    "aPays": "Belarus",
    "aPrenom": "Carlon",
    "aNom": "Hugues",
    "aSociete": "89.22.19.197",
    "aAdresse": "6 Sommers Street",
    "aCodePostal": null,
    "aFrDept": 54,
    "aVille": "234.191.171.184",
    "aRegion": "Innojam",
    "aLong": "28.0115",
    "aLat": "53.7496",
    "aLocM": "49.96652"
  }, {
    "aId": 8,
    "aIdServer": 99,
    "aCode": "29",
    "aFkClientId": 58,
    "aFkClientAppliId": 17,
    "aFkCheminId": 17,
    "aFkCheminAppliId": 25,
    "aPays": "Brazil",
    "aPrenom": "Cesco",
    "aNom": "Marvin",
    "aSociete": "31.46.242.94",
    "aAdresse": "9 Grim Way",
    "aCodePostal": "29330-000",
    "aFrDept": 24,
    "aVille": "193.152.249.142",
    "aRegion": "Ainyx",
    "aLong": "-40.83389",
    "aLat": "-21.01111",
    "aLocM": "-2.62833"
  }, {
    "aId": 9,
    "aIdServer": 49,
    "aCode": "9179",
    "aFkClientId": 19,
    "aFkClientAppliId": 86,
    "aFkCheminId": 81,
    "aFkCheminAppliId": 83,
    "aPays": "Indonesia",
    "aPrenom": "Edgeon",
    "aNom": "Sibyl",
    "aSociete": "165.82.223.134",
    "aAdresse": "367 Texas Terrace",
    "aCodePostal": null,
    "aFrDept": 35,
    "aVille": "201.219.10.214",
    "aRegion": "Skalith",
    "aLong": "111.6856",
    "aLat": "-7.1441",
    "aLocM": "40.66992"
  }, {
    "aId": 10,
    "aIdServer": 98,
    "aCode": "76859",
    "aFkClientId": 92,
    "aFkClientAppliId": 79,
    "aFkCheminId": 34,
    "aFkCheminAppliId": 51,
    "aPays": "China",
    "aPrenom": "Chenery",
    "aNom": "Chelsea",
    "aSociete": "159.176.182.215",
    "aAdresse": "008 Armistice Way",
    "aCodePostal": null,
    "aFrDept": 82,
    "aVille": "25.240.45.222",
    "aRegion": "Yozio",
    "aLong": "118.22986",
    "aLat": "31.21244",
    "aLocM": "10.29085"
  }, {
    "aId": 11,
    "aIdServer": 10,
    "aCode": "9888",
    "aFkClientId": 2,
    "aFkClientAppliId": 3,
    "aFkCheminId": 26,
    "aFkCheminAppliId": 75,
    "aPays": "Philippines",
    "aPrenom": "Andersch",
    "aNom": "Aurelie",
    "aSociete": "152.132.172.120",
    "aAdresse": "5363 Farmco Trail",
    "aCodePostal": "5417",
    "aFrDept": 84,
    "aVille": "103.192.0.205",
    "aRegion": "Riffpedia",
    "aLong": "120.66959",
    "aLat": "15.54496",
    "aLocM": "43.67898"
  }, {
    "aId": 12,
    "aIdServer": 94,
    "aCode": "94980",
    "aFkClientId": 39,
    "aFkClientAppliId": 99,
    "aFkCheminId": 90,
    "aFkCheminAppliId": 11,
    "aPays": "Serbia",
    "aPrenom": "Krol",
    "aNom": "Jelene",
    "aSociete": "187.185.110.17",
    "aAdresse": "082 Golden Leaf Street",
    "aCodePostal": null,
    "aFrDept": 87,
    "aVille": "215.30.136.70",
    "aRegion": "Jabbertype",
    "aLong": "19.59153",
    "aLat": "44.55021",
    "aLocM": "15.18636"
  }, {
    "aId": 13,
    "aIdServer": 98,
    "aCode": "217",
    "aFkClientId": 81,
    "aFkClientAppliId": 63,
    "aFkCheminId": 71,
    "aFkCheminAppliId": 53,
    "aPays": "Sri Lanka",
    "aPrenom": "Dunkerly",
    "aNom": "Greer",
    "aSociete": "172.25.58.145",
    "aAdresse": "58218 Tomscot Avenue",
    "aCodePostal": "10600",
    "aFrDept": 74,
    "aVille": "205.224.27.91",
    "aRegion": "Skivee",
    "aLong": "79.90708",
    "aLat": "6.88297",
    "aLocM": "28.60892"
  }, {
    "aId": 14,
    "aIdServer": 16,
    "aCode": "73664",
    "aFkClientId": 92,
    "aFkClientAppliId": 7,
    "aFkCheminId": 87,
    "aFkCheminAppliId": 73,
    "aPays": "Czech Republic",
    "aPrenom": "Puvia",
    "aNom": "Locke",
    "aSociete": "187.162.12.12",
    "aAdresse": "48109 Clarendon Avenue",
    "aCodePostal": "373 72",
    "aFrDept": 65,
    "aVille": "231.48.166.126",
    "aRegion": "Twinte",
    "aLong": "14.60838",
    "aLat": "49.01597",
    "aLocM": "-7.51651"
  }, {
    "aId": 15,
    "aIdServer": 73,
    "aCode": "75086",
    "aFkClientId": 8,
    "aFkClientAppliId": 9,
    "aFkCheminId": 88,
    "aFkCheminAppliId": 72,
    "aPays": "United States",
    "aPrenom": "Pelzer",
    "aNom": "Lolita",
    "aSociete": "92.138.215.80",
    "aAdresse": "6515 Spaight Court",
    "aCodePostal": "34642",
    "aFrDept": 96,
    "aVille": "164.89.24.142",
    "aRegion": "Innotype",
    "aLong": "-82.7963",
    "aLat": "27.8444",
    "aLocM": "15.18014"
  }, {
    "aId": 16,
    "aIdServer": 88,
    "aCode": "5",
    "aFkClientId": 44,
    "aFkClientAppliId": 68,
    "aFkCheminId": 14,
    "aFkCheminAppliId": 1,
    "aPays": "United States",
    "aPrenom": "Donisthorpe",
    "aNom": "Ramonda",
    "aSociete": "249.57.137.74",
    "aAdresse": "85 Ramsey Trail",
    "aCodePostal": "64130",
    "aFrDept": 92,
    "aVille": "103.193.50.56",
    "aRegion": "InnoZ",
    "aLong": "-94.5467",
    "aLat": "39.0351",
    "aLocM": "26.57222"
  }, {
    "aId": 17,
    "aIdServer": 83,
    "aCode": "9936",
    "aFkClientId": 15,
    "aFkClientAppliId": 25,
    "aFkCheminId": 95,
    "aFkCheminAppliId": 86,
    "aPays": "Russia",
    "aPrenom": "Blose",
    "aNom": "Arlyn",
    "aSociete": "26.250.103.109",
    "aAdresse": "225 Magdeline Alley",
    "aCodePostal": "391237",
    "aFrDept": 17,
    "aVille": "143.79.200.218",
    "aRegion": "Eazzy",
    "aLong": "37.51991",
    "aLat": "55.60686",
    "aLocM": "11.77521"
  }, {
    "aId": 18,
    "aIdServer": 93,
    "aCode": "9853",
    "aFkClientId": 27,
    "aFkClientAppliId": 49,
    "aFkCheminId": 11,
    "aFkCheminAppliId": 9,
    "aPays": "Indonesia",
    "aPrenom": "Keep",
    "aNom": "Tedmund",
    "aSociete": "208.82.148.95",
    "aAdresse": "60 Atwood Lane",
    "aCodePostal": null,
    "aFrDept": 3,
    "aVille": "142.45.4.7",
    "aRegion": "Quimba",
    "aLong": "112.4148",
    "aLat": "-6.9261",
    "aLocM": "25.667"
  }, {
    "aId": 19,
    "aIdServer": 86,
    "aCode": "61328",
    "aFkClientId": 49,
    "aFkClientAppliId": 21,
    "aFkCheminId": 81,
    "aFkCheminAppliId": 31,
    "aPays": "Madagascar",
    "aPrenom": "Mc Giffin",
    "aNom": "Tristan",
    "aSociete": "141.206.83.243",
    "aAdresse": "2 Carey Alley",
    "aCodePostal": null,
    "aFrDept": 59,
    "aVille": "35.117.56.235",
    "aRegion": "Meeveo",
    "aLong": "48.26667",
    "aLat": "-13.4",
    "aLocM": "-22.31472"
  }, {
    "aId": 20,
    "aIdServer": 99,
    "aCode": "57",
    "aFkClientId": 95,
    "aFkClientAppliId": 53,
    "aFkCheminId": 98,
    "aFkCheminAppliId": 19,
    "aPays": "Ukraine",
    "aPrenom": "Kingsnode",
    "aNom": "Bengt",
    "aSociete": "184.201.107.150",
    "aAdresse": "78 Granby Crossing",
    "aCodePostal": null,
    "aFrDept": 66,
    "aVille": "238.45.59.183",
    "aRegion": "Edgeblab",
    "aLong": "26.14469",
    "aLat": "51.4213",
    "aLocM": "9.9736"
  }, {
    "aId": 21,
    "aIdServer": 79,
    "aCode": "09",
    "aFkClientId": 59,
    "aFkClientAppliId": 11,
    "aFkCheminId": 24,
    "aFkCheminAppliId": 59,
    "aPays": "China",
    "aPrenom": "Januszkiewicz",
    "aNom": "Charley",
    "aSociete": "191.40.139.1",
    "aAdresse": "8467 Ohio Drive",
    "aCodePostal": null,
    "aFrDept": 98,
    "aVille": "198.29.237.182",
    "aRegion": "Meembee",
    "aLong": "127.10108",
    "aLat": "42.95635",
    "aLocM": "-22.7775"
  }, {
    "aId": 22,
    "aIdServer": 42,
    "aCode": "96",
    "aFkClientId": 85,
    "aFkClientAppliId": 17,
    "aFkCheminId": 54,
    "aFkCheminAppliId": 60,
    "aPays": "China",
    "aPrenom": "Proudley",
    "aNom": "Ivett",
    "aSociete": "252.40.149.248",
    "aAdresse": "15514 Sugar Street",
    "aCodePostal": null,
    "aFrDept": 45,
    "aVille": "105.66.183.88",
    "aRegion": "Fanoodle",
    "aLong": "101.81256",
    "aLat": "35.0666",
    "aLocM": "48.8157"
  }, {
    "aId": 23,
    "aIdServer": 58,
    "aCode": "679",
    "aFkClientId": 55,
    "aFkClientAppliId": 87,
    "aFkCheminId": 55,
    "aFkCheminAppliId": 83,
    "aPays": "Serbia",
    "aPrenom": "Milborn",
    "aNom": "Mercie",
    "aSociete": "45.208.84.208",
    "aAdresse": "8 Merry Center",
    "aCodePostal": null,
    "aFrDept": 80,
    "aVille": "240.153.180.208",
    "aRegion": "Oyoyo",
    "aLong": "22.61194",
    "aLat": "44.60667",
    "aLocM": "30.7474"
  }, {
    "aId": 24,
    "aIdServer": 68,
    "aCode": "866",
    "aFkClientId": 31,
    "aFkClientAppliId": 62,
    "aFkCheminId": 63,
    "aFkCheminAppliId": 34,
    "aPays": "Cyprus",
    "aPrenom": "Wharrier",
    "aNom": "Francesca",
    "aSociete": "100.82.16.243",
    "aAdresse": "60827 Leroy Lane",
    "aCodePostal": null,
    "aFrDept": 31,
    "aVille": "186.144.125.68",
    "aRegion": "Livetube",
    "aLong": "33.36667",
    "aLat": "35.16667",
    "aLocM": "10.35917"
  }, {
    "aId": 25,
    "aIdServer": 98,
    "aCode": "91586",
    "aFkClientId": 67,
    "aFkClientAppliId": 100,
    "aFkCheminId": 93,
    "aFkCheminAppliId": 51,
    "aPays": "Argentina",
    "aPrenom": "Dumbelton",
    "aNom": "Lorelei",
    "aSociete": "184.161.3.90",
    "aAdresse": "207 Bartillon Terrace",
    "aCodePostal": "2550",
    "aFrDept": 38,
    "aVille": "107.152.10.78",
    "aRegion": "Photolist",
    "aLong": "-62.68873",
    "aLat": "-32.62591",
    "aLocM": "14.51345"
  }, {
    "aId": 26,
    "aIdServer": 61,
    "aCode": "45",
    "aFkClientId": 82,
    "aFkClientAppliId": 78,
    "aFkCheminId": 4,
    "aFkCheminAppliId": 43,
    "aPays": "France",
    "aPrenom": "Dutch",
    "aNom": "Emmalyn",
    "aSociete": "220.49.88.14",
    "aAdresse": "3751 Sherman Drive",
    "aCodePostal": "81604 CEDEX",
    "aFrDept": 15,
    "aVille": "108.196.192.130",
    "aRegion": "Buzzdog",
    "aLong": "1.8969",
    "aLat": "43.9016",
    "aLocM": "-26.25028"
  }, {
    "aId": 27,
    "aIdServer": 35,
    "aCode": "85",
    "aFkClientId": 21,
    "aFkClientAppliId": 20,
    "aFkCheminId": 52,
    "aFkCheminAppliId": 64,
    "aPays": "Colombia",
    "aPrenom": "Vose",
    "aNom": "Mattheus",
    "aSociete": "16.38.215.174",
    "aAdresse": "41 Mandrake Place",
    "aCodePostal": "501018",
    "aFrDept": 58,
    "aVille": "211.238.169.174",
    "aRegion": "Jabberbean",
    "aLong": "-72.79399",
    "aLat": "4.2817",
    "aLocM": "-8.7865"
  }, {
    "aId": 28,
    "aIdServer": 19,
    "aCode": "849",
    "aFkClientId": 98,
    "aFkClientAppliId": 15,
    "aFkCheminId": 7,
    "aFkCheminAppliId": 50,
    "aPays": "Greece",
    "aPrenom": "Lyven",
    "aNom": "Angel",
    "aSociete": "82.239.1.192",
    "aAdresse": "29205 Marquette Hill",
    "aCodePostal": null,
    "aFrDept": 57,
    "aVille": "55.171.144.238",
    "aRegion": "Gigazoom",
    "aLong": "24.03995",
    "aLat": "35.47587",
    "aLocM": "-29.66434"
  }, {
    "aId": 29,
    "aIdServer": 70,
    "aCode": "993",
    "aFkClientId": 24,
    "aFkClientAppliId": 74,
    "aFkCheminId": 86,
    "aFkCheminAppliId": 65,
    "aPays": "Colombia",
    "aPrenom": "Baterip",
    "aNom": "Jeni",
    "aSociete": "91.163.139.212",
    "aAdresse": "56 Westend Point",
    "aCodePostal": "152247",
    "aFrDept": 59,
    "aVille": "139.51.30.178",
    "aRegion": "Browsetype",
    "aLong": "-74",
    "aLat": "10.25",
    "aLocM": "24.24875"
  }, {
    "aId": 30,
    "aIdServer": 90,
    "aCode": "3",
    "aFkClientId": 28,
    "aFkClientAppliId": 66,
    "aFkCheminId": 41,
    "aFkCheminAppliId": 35,
    "aPays": "China",
    "aPrenom": "Allawy",
    "aNom": "Tildi",
    "aSociete": "166.2.84.240",
    "aAdresse": "2825 Shoshone Way",
    "aCodePostal": null,
    "aFrDept": 66,
    "aVille": "70.12.21.219",
    "aRegion": "Avavee",
    "aLong": "109.8",
    "aLat": "28.93333",
    "aLocM": "-8.301"
  }, {
    "aId": 31,
    "aIdServer": 42,
    "aCode": "2701",
    "aFkClientId": 50,
    "aFkClientAppliId": 70,
    "aFkCheminId": 21,
    "aFkCheminAppliId": 54,
    "aPays": "China",
    "aPrenom": "Pinnington",
    "aNom": "Ivonne",
    "aSociete": "223.70.178.134",
    "aAdresse": "393 Carberry Avenue",
    "aCodePostal": null,
    "aFrDept": 64,
    "aVille": "130.79.85.91",
    "aRegion": "Jaxspan",
    "aLong": "112.45583",
    "aLat": "31.97389",
    "aLocM": "22.50558"
  }, {
    "aId": 32,
    "aIdServer": 17,
    "aCode": "0",
    "aFkClientId": 5,
    "aFkClientAppliId": 31,
    "aFkCheminId": 44,
    "aFkCheminAppliId": 84,
    "aPays": "Brazil",
    "aPrenom": "Yurin",
    "aNom": "Kathye",
    "aSociete": "142.23.101.238",
    "aAdresse": "59288 Pearson Street",
    "aCodePostal": "89560-000",
    "aFrDept": 2,
    "aVille": "77.176.125.122",
    "aRegion": "Edgewire",
    "aLong": "-51.15167",
    "aLat": "-27.00833",
    "aLocM": "29.72504"
  }, {
    "aId": 33,
    "aIdServer": 94,
    "aCode": "0393",
    "aFkClientId": 21,
    "aFkClientAppliId": 40,
    "aFkCheminId": 14,
    "aFkCheminAppliId": 28,
    "aPays": "Indonesia",
    "aPrenom": "Walkden",
    "aNom": "Fania",
    "aSociete": "149.63.214.247",
    "aAdresse": "468 Merchant Court",
    "aCodePostal": null,
    "aFrDept": 92,
    "aVille": "169.95.206.245",
    "aRegion": "Browsebug",
    "aLong": "108.8328",
    "aLat": "-7.3065",
    "aLocM": "6.77667"
  }, {
    "aId": 34,
    "aIdServer": 88,
    "aCode": "9",
    "aFkClientId": 1,
    "aFkClientAppliId": 8,
    "aFkCheminId": 68,
    "aFkCheminAppliId": 86,
    "aPays": "Serbia",
    "aPrenom": "Eilles",
    "aNom": "Phyllis",
    "aSociete": "145.162.27.204",
    "aAdresse": "115 Petterle Street",
    "aCodePostal": null,
    "aFrDept": 26,
    "aVille": "46.12.46.5",
    "aRegion": "Mynte",
    "aLong": "21.721",
    "aLat": "43.01224",
    "aLocM": "6.6779"
  }, {
    "aId": 35,
    "aIdServer": 75,
    "aCode": "83",
    "aFkClientId": 14,
    "aFkClientAppliId": 31,
    "aFkCheminId": 87,
    "aFkCheminAppliId": 5,
    "aPays": "Japan",
    "aPrenom": "Arnli",
    "aNom": "Catherin",
    "aSociete": "232.216.100.154",
    "aAdresse": "58 Leroy Alley",
    "aCodePostal": "989-1505",
    "aFrDept": 15,
    "aVille": "39.189.205.234",
    "aRegion": "Pixoboo",
    "aLong": "136.48727",
    "aLat": "35.98106",
    "aLocM": "44.98345"
  }, {
    "aId": 36,
    "aIdServer": 36,
    "aCode": "8036",
    "aFkClientId": 19,
    "aFkClientAppliId": 86,
    "aFkCheminId": 33,
    "aFkCheminAppliId": 4,
    "aPays": "China",
    "aPrenom": "Dawtrey",
    "aNom": "Ange",
    "aSociete": "44.206.203.231",
    "aAdresse": "61261 Troy Center",
    "aCodePostal": null,
    "aFrDept": 71,
    "aVille": "255.64.155.8",
    "aRegion": "Dabtype",
    "aLong": "123.24638",
    "aLat": "48.11312",
    "aLocM": "36.18389"
  }, {
    "aId": 37,
    "aIdServer": 65,
    "aCode": "57552",
    "aFkClientId": 80,
    "aFkClientAppliId": 48,
    "aFkCheminId": 94,
    "aFkCheminAppliId": 64,
    "aPays": "Germany",
    "aPrenom": "Wormstone",
    "aNom": "Kati",
    "aSociete": "172.63.7.167",
    "aAdresse": "5 Dorton Parkway",
    "aCodePostal": "04109",
    "aFrDept": 88,
    "aVille": "17.35.17.76",
    "aRegion": "Demivee",
    "aLong": "12.375",
    "aLat": "51.342",
    "aLocM": "-6.7257"
  }, {
    "aId": 38,
    "aIdServer": 87,
    "aCode": "865",
    "aFkClientId": 85,
    "aFkClientAppliId": 58,
    "aFkCheminId": 39,
    "aFkCheminAppliId": 58,
    "aPays": "Croatia",
    "aPrenom": "Zimmermanns",
    "aNom": "Maximo",
    "aSociete": "51.34.176.98",
    "aAdresse": "60779 Farragut Circle",
    "aCodePostal": "10315",
    "aFrDept": 25,
    "aVille": "50.246.213.163",
    "aRegion": "Eidel",
    "aLong": "16.53639",
    "aLat": "45.6525",
    "aLocM": "29.9686"
  }, {
    "aId": 39,
    "aIdServer": 24,
    "aCode": "425",
    "aFkClientId": 34,
    "aFkClientAppliId": 25,
    "aFkCheminId": 28,
    "aFkCheminAppliId": 80,
    "aPays": "Indonesia",
    "aPrenom": "Hansana",
    "aNom": "Vincents",
    "aSociete": "29.252.34.218",
    "aAdresse": "511 Aberg Terrace",
    "aCodePostal": null,
    "aFrDept": 32,
    "aVille": "130.167.138.139",
    "aRegion": "Plajo",
    "aLong": "111.4968",
    "aLat": "-6.9381",
    "aLocM": "52.65691"
  }, {
    "aId": 40,
    "aIdServer": 78,
    "aCode": "79129",
    "aFkClientId": 64,
    "aFkClientAppliId": 10,
    "aFkCheminId": 29,
    "aFkCheminAppliId": 61,
    "aPays": "Poland",
    "aPrenom": "Luciani",
    "aNom": "Fair",
    "aSociete": "99.60.119.115",
    "aAdresse": "9632 Carioca Street",
    "aCodePostal": "22-310",
    "aFrDept": 47,
    "aVille": "115.60.73.122",
    "aRegion": "Realpoint",
    "aLong": "23.34929",
    "aLat": "50.93171",
    "aLocM": "50.29146"
  }, {
    "aId": 41,
    "aIdServer": 76,
    "aCode": "6739",
    "aFkClientId": 3,
    "aFkClientAppliId": 35,
    "aFkCheminId": 49,
    "aFkCheminAppliId": 61,
    "aPays": "China",
    "aPrenom": "Hallatt",
    "aNom": "Modestia",
    "aSociete": "153.125.56.18",
    "aAdresse": "1782 Johnson Road",
    "aCodePostal": null,
    "aFrDept": 25,
    "aVille": "70.239.179.179",
    "aRegion": "Jabberstorm",
    "aLong": "108.88038",
    "aLat": "28.52485",
    "aLocM": "9.2207"
  }, {
    "aId": 42,
    "aIdServer": 15,
    "aCode": "0",
    "aFkClientId": 10,
    "aFkClientAppliId": 44,
    "aFkCheminId": 93,
    "aFkCheminAppliId": 54,
    "aPays": "Malaysia",
    "aPrenom": "Keasley",
    "aNom": "Noelyn",
    "aSociete": "190.231.34.152",
    "aAdresse": "563 Carpenter Point",
    "aCodePostal": "50592",
    "aFrDept": 94,
    "aVille": "107.216.56.237",
    "aRegion": "Flashdog",
    "aLong": "101.6869",
    "aLat": "3.139",
    "aLocM": null
  }, {
    "aId": 43,
    "aIdServer": 92,
    "aCode": "3",
    "aFkClientId": 21,
    "aFkClientAppliId": 37,
    "aFkCheminId": 59,
    "aFkCheminAppliId": 59,
    "aPays": "China",
    "aPrenom": "Pabel",
    "aNom": "Clotilda",
    "aSociete": "138.229.140.193",
    "aAdresse": "18207 Bunker Hill Court",
    "aCodePostal": null,
    "aFrDept": 56,
    "aVille": "152.34.32.150",
    "aRegion": "Riffpedia",
    "aLong": "119.52278",
    "aLat": "26.66167",
    "aLocM": "44.58304"
  }, {
    "aId": 44,
    "aIdServer": 12,
    "aCode": "95",
    "aFkClientId": 25,
    "aFkClientAppliId": 66,
    "aFkCheminId": 43,
    "aFkCheminAppliId": 51,
    "aPays": "China",
    "aPrenom": "Silby",
    "aNom": "Ginni",
    "aSociete": "179.68.155.116",
    "aAdresse": "06510 Haas Alley",
    "aCodePostal": null,
    "aFrDept": 94,
    "aVille": "237.60.20.13",
    "aRegion": "Brainbox",
    "aLong": "101.8679",
    "aLat": "22.55967",
    "aLocM": "56.06681"
  }, {
    "aId": 45,
    "aIdServer": 48,
    "aCode": "024",
    "aFkClientId": 70,
    "aFkClientAppliId": 83,
    "aFkCheminId": 53,
    "aFkCheminAppliId": 84,
    "aPays": "Philippines",
    "aPrenom": "Carss",
    "aNom": "Angie",
    "aSociete": "245.23.130.187",
    "aAdresse": "6 Hollow Ridge Terrace",
    "aCodePostal": "9408",
    "aFrDept": 56,
    "aVille": "96.0.146.157",
    "aRegion": "Bubblebox",
    "aLong": "125.2925",
    "aLat": "8.98861",
    "aLocM": "14.48333"
  }, {
    "aId": 46,
    "aIdServer": 56,
    "aCode": "9107",
    "aFkClientId": 81,
    "aFkClientAppliId": 46,
    "aFkCheminId": 22,
    "aFkCheminAppliId": 11,
    "aPays": "Uruguay",
    "aPrenom": "Bonar",
    "aNom": "Brigida",
    "aSociete": "43.59.186.143",
    "aAdresse": "38362 Ramsey Avenue",
    "aCodePostal": null,
    "aFrDept": 11,
    "aVille": "208.229.54.130",
    "aRegion": "Divavu",
    "aLong": "-57.23333",
    "aLat": "-34.3",
    "aLocM": "56.1591"
  }, {
    "aId": 47,
    "aIdServer": 60,
    "aCode": "5",
    "aFkClientId": 7,
    "aFkClientAppliId": 5,
    "aFkCheminId": 35,
    "aFkCheminAppliId": 78,
    "aPays": "Mexico",
    "aPrenom": "Bloxsome",
    "aNom": "Elaine",
    "aSociete": "245.159.143.191",
    "aAdresse": "8 Ridge Oak Plaza",
    "aCodePostal": "56528",
    "aFrDept": 23,
    "aVille": "184.116.145.64",
    "aRegion": "Tagpad",
    "aLong": "-98.8924",
    "aLat": "19.6175",
    "aLocM": "-6.9442"
  }, {
    "aId": 48,
    "aIdServer": 62,
    "aCode": "4070",
    "aFkClientId": 90,
    "aFkClientAppliId": 55,
    "aFkCheminId": 20,
    "aFkCheminAppliId": 67,
    "aPays": "France",
    "aPrenom": "Moulsdale",
    "aNom": "Galven",
    "aSociete": "204.172.17.217",
    "aAdresse": "1 Division Pass",
    "aCodePostal": "59376 CEDEX 1",
    "aFrDept": 39,
    "aVille": "68.102.240.97",
    "aRegion": "Zoonder",
    "aLong": "2.377",
    "aLat": "51.033",
    "aLocM": "27.40043"
  }, {
    "aId": 49,
    "aIdServer": 26,
    "aCode": "2517",
    "aFkClientId": 18,
    "aFkClientAppliId": 65,
    "aFkCheminId": 8,
    "aFkCheminAppliId": 13,
    "aPays": "Luxembourg",
    "aPrenom": "Kelway",
    "aNom": "Inessa",
    "aSociete": "240.131.206.82",
    "aAdresse": "40020 Meadow Vale Terrace",
    "aCodePostal": "L-6834",
    "aFrDept": 3,
    "aVille": "61.171.46.37",
    "aRegion": "Flashset",
    "aLong": "6.37472",
    "aLat": "49.70278",
    "aLocM": "51.5494"
  }, {
    "aId": 50,
    "aIdServer": 56,
    "aCode": "6",
    "aFkClientId": 86,
    "aFkClientAppliId": 75,
    "aFkCheminId": 31,
    "aFkCheminAppliId": 66,
    "aPays": "Malaysia",
    "aPrenom": "Mulkerrins",
    "aNom": "Gretna",
    "aSociete": "130.166.228.149",
    "aAdresse": "84 Dakota Circle",
    "aCodePostal": "90736",
    "aFrDept": 93,
    "aVille": "115.162.138.124",
    "aRegion": "Trunyx",
    "aLong": "118.0571",
    "aLat": "5.8456",
    "aLocM": "26.72501"
  }, {
    "aId": 51,
    "aIdServer": 72,
    "aCode": "606",
    "aFkClientId": 17,
    "aFkClientAppliId": 37,
    "aFkCheminId": 76,
    "aFkCheminAppliId": 19,
    "aPays": "Indonesia",
    "aPrenom": "Dargie",
    "aNom": "Mitch",
    "aSociete": "19.244.130.37",
    "aAdresse": "2145 Sauthoff Lane",
    "aCodePostal": null,
    "aFrDept": 64,
    "aVille": "91.92.81.147",
    "aRegion": "Eabox",
    "aLong": "106.7451",
    "aLat": "-7.4259",
    "aLocM": "29.3875"
  }, {
    "aId": 52,
    "aIdServer": 89,
    "aCode": "57",
    "aFkClientId": 5,
    "aFkClientAppliId": 30,
    "aFkCheminId": 8,
    "aFkCheminAppliId": 30,
    "aPays": "Czech Republic",
    "aPrenom": "McGuane",
    "aNom": "Raimundo",
    "aSociete": "126.235.128.106",
    "aAdresse": "422 Anhalt Terrace",
    "aCodePostal": "439 23",
    "aFrDept": 22,
    "aVille": "66.4.197.8",
    "aRegion": "Brightbean",
    "aLong": "13.7659",
    "aLat": "50.37516",
    "aLocM": "63.8284"
  }, {
    "aId": 53,
    "aIdServer": 55,
    "aCode": "3663",
    "aFkClientId": 29,
    "aFkClientAppliId": 70,
    "aFkCheminId": 60,
    "aFkCheminAppliId": 27,
    "aPays": "Poland",
    "aPrenom": "Perl",
    "aNom": "Bryanty",
    "aSociete": "18.255.132.66",
    "aAdresse": "0682 Rutledge Parkway",
    "aCodePostal": "87-603",
    "aFrDept": 89,
    "aVille": "40.139.242.193",
    "aRegion": "Thoughtstorm",
    "aLong": "19.2635",
    "aLat": "52.74076",
    "aLocM": "41"
  }, {
    "aId": 54,
    "aIdServer": 3,
    "aCode": "4132",
    "aFkClientId": 2,
    "aFkClientAppliId": 70,
    "aFkCheminId": 25,
    "aFkCheminAppliId": 12,
    "aPays": "Indonesia",
    "aPrenom": "Wasbey",
    "aNom": "Rachele",
    "aSociete": "165.50.171.105",
    "aAdresse": "99 Fair Oaks Trail",
    "aCodePostal": null,
    "aFrDept": 65,
    "aVille": "95.222.110.116",
    "aRegion": "Cogidoo",
    "aLong": "113.5874",
    "aLat": "-7.0436",
    "aLocM": "59.75"
  }, {
    "aId": 55,
    "aIdServer": 21,
    "aCode": "9",
    "aFkClientId": 99,
    "aFkClientAppliId": 41,
    "aFkCheminId": 50,
    "aFkCheminAppliId": 92,
    "aPays": "Portugal",
    "aPrenom": "Press",
    "aNom": "Barton",
    "aSociete": "180.183.207.26",
    "aAdresse": "20776 Independence Court",
    "aCodePostal": "4620-261",
    "aFrDept": 47,
    "aVille": "140.180.24.80",
    "aRegion": "Oyonder",
    "aLong": "-8.5119",
    "aLat": "41.3238",
    "aLocM": "32.13538"
  }, {
    "aId": 56,
    "aIdServer": 38,
    "aCode": "5072",
    "aFkClientId": 88,
    "aFkClientAppliId": 21,
    "aFkCheminId": 91,
    "aFkCheminAppliId": 1,
    "aPays": "Russia",
    "aPrenom": "Chesshire",
    "aNom": "Filmer",
    "aSociete": "58.69.88.99",
    "aAdresse": "87 Dennis Place",
    "aCodePostal": "182142",
    "aFrDept": 95,
    "aVille": "200.33.14.47",
    "aRegion": "Npath",
    "aLong": "30.54517",
    "aLat": "56.34",
    "aLocM": "33.53298"
  }, {
    "aId": 57,
    "aIdServer": 64,
    "aCode": "61",
    "aFkClientId": 66,
    "aFkClientAppliId": 86,
    "aFkCheminId": 46,
    "aFkCheminAppliId": 12,
    "aPays": "Portugal",
    "aPrenom": "Server",
    "aNom": "Starla",
    "aSociete": "52.241.203.157",
    "aAdresse": "502 Raven Junction",
    "aCodePostal": "2615-009",
    "aFrDept": 26,
    "aVille": "123.234.241.92",
    "aRegion": "Thoughtbeat",
    "aLong": "-9.2167",
    "aLat": "39.2167",
    "aLocM": "14.79139"
  }, {
    "aId": 58,
    "aIdServer": 31,
    "aCode": "86198",
    "aFkClientId": 77,
    "aFkClientAppliId": 18,
    "aFkCheminId": 5,
    "aFkCheminAppliId": 55,
    "aPays": "Bangladesh",
    "aPrenom": "McInnery",
    "aNom": "Mac",
    "aSociete": "89.106.212.166",
    "aAdresse": "4183 Bobwhite Way",
    "aCodePostal": "1330",
    "aFrDept": 42,
    "aVille": "201.108.241.124",
    "aRegion": "Roomm",
    "aLong": "90.14251",
    "aLat": "23.59311",
    "aLocM": "40.21965"
  }, {
    "aId": 59,
    "aIdServer": 17,
    "aCode": "0043",
    "aFkClientId": 83,
    "aFkClientAppliId": 13,
    "aFkCheminId": 89,
    "aFkCheminAppliId": 88,
    "aPays": "Poland",
    "aPrenom": "Brambell",
    "aNom": "Sergei",
    "aSociete": "6.211.216.114",
    "aAdresse": "25 Messerschmidt Center",
    "aCodePostal": "62-860",
    "aFrDept": 46,
    "aVille": "51.228.225.167",
    "aRegion": "Skiptube",
    "aLong": "18.21653",
    "aLat": "51.73989",
    "aLocM": "12.5223"
  }, {
    "aId": 60,
    "aIdServer": 3,
    "aCode": "67",
    "aFkClientId": 9,
    "aFkClientAppliId": 99,
    "aFkCheminId": 5,
    "aFkCheminAppliId": 19,
    "aPays": "Chad",
    "aPrenom": "Huxter",
    "aNom": "Hershel",
    "aSociete": "41.223.195.59",
    "aAdresse": "3 Duke Avenue",
    "aCodePostal": null,
    "aFrDept": 45,
    "aVille": "39.88.176.10",
    "aRegion": "Vimbo",
    "aLong": "16.08333",
    "aLat": "8.56667",
    "aLocM": "52.08831"
  }, {
    "aId": 61,
    "aIdServer": 82,
    "aCode": "411",
    "aFkClientId": 89,
    "aFkClientAppliId": 28,
    "aFkCheminId": 16,
    "aFkCheminAppliId": 83,
    "aPays": "Canada",
    "aPrenom": "Feely",
    "aNom": "Ambrosio",
    "aSociete": "244.135.16.160",
    "aAdresse": "3 Merchant Place",
    "aCodePostal": "S9V",
    "aFrDept": 88,
    "aVille": "125.7.72.152",
    "aRegion": "Feedfish",
    "aLong": "-110.00157",
    "aLat": "53.28346",
    "aLocM": "34.21422"
  }, {
    "aId": 62,
    "aIdServer": 26,
    "aCode": "538",
    "aFkClientId": 45,
    "aFkClientAppliId": 69,
    "aFkCheminId": 36,
    "aFkCheminAppliId": 92,
    "aPays": "Ethiopia",
    "aPrenom": "Halfhide",
    "aNom": "Dedie",
    "aSociete": "104.246.187.94",
    "aAdresse": "15 Vera Parkway",
    "aCodePostal": null,
    "aFrDept": 85,
    "aVille": "231.145.184.49",
    "aRegion": "Skinder",
    "aLong": "37.39077",
    "aLat": "11.59364",
    "aLocM": "-6.7917"
  }, {
    "aId": 63,
    "aIdServer": 36,
    "aCode": "0",
    "aFkClientId": 76,
    "aFkClientAppliId": 38,
    "aFkCheminId": 79,
    "aFkCheminAppliId": 56,
    "aPays": "Portugal",
    "aPrenom": "Ferronet",
    "aNom": "Cilka",
    "aSociete": "227.44.40.61",
    "aAdresse": "06 Huxley Place",
    "aCodePostal": "2525-474",
    "aFrDept": 18,
    "aVille": "100.194.185.37",
    "aRegion": "Kayveo",
    "aLong": "-9.3143",
    "aLat": "39.3213",
    "aLocM": "6.44417"
  }, {
    "aId": 64,
    "aIdServer": 69,
    "aCode": "8",
    "aFkClientId": 98,
    "aFkClientAppliId": 36,
    "aFkCheminId": 78,
    "aFkCheminAppliId": 71,
    "aPays": "Portugal",
    "aPrenom": "Errowe",
    "aNom": "Mab",
    "aSociete": "204.212.68.205",
    "aAdresse": "1 Cody Hill",
    "aCodePostal": "3505-125",
    "aFrDept": 63,
    "aVille": "180.241.216.37",
    "aRegion": "Jabbertype",
    "aLong": "-7.8295",
    "aLat": "40.8205",
    "aLocM": "-17.4062"
  }, {
    "aId": 65,
    "aIdServer": 3,
    "aCode": "163",
    "aFkClientId": 6,
    "aFkClientAppliId": 83,
    "aFkCheminId": 84,
    "aFkCheminAppliId": 60,
    "aPays": "Haiti",
    "aPrenom": "Lasham",
    "aNom": "Madelena",
    "aSociete": "101.39.136.34",
    "aAdresse": "497 Meadow Valley Road",
    "aCodePostal": null,
    "aFrDept": 93,
    "aVille": "77.232.174.169",
    "aRegion": "Jabbercube",
    "aLong": "-71.7904",
    "aLat": "19.16271",
    "aLocM": "11.7011"
  }, {
    "aId": 66,
    "aIdServer": 33,
    "aCode": "18",
    "aFkClientId": 7,
    "aFkClientAppliId": 52,
    "aFkCheminId": 86,
    "aFkCheminAppliId": 22,
    "aPays": "Colombia",
    "aPrenom": "Ilyas",
    "aNom": "Gage",
    "aSociete": "157.91.150.106",
    "aAdresse": "3193 Oriole Crossing",
    "aCodePostal": "705079",
    "aFrDept": 87,
    "aVille": "251.36.26.221",
    "aRegion": "Feednation",
    "aLong": "-75.38167",
    "aLat": "9.18361",
    "aLocM": "47.9804"
  }, {
    "aId": 67,
    "aIdServer": 75,
    "aCode": "131",
    "aFkClientId": 47,
    "aFkClientAppliId": 99,
    "aFkCheminId": 12,
    "aFkCheminAppliId": 4,
    "aPays": "Honduras",
    "aPrenom": "Cristofolini",
    "aNom": "Robenia",
    "aSociete": "62.134.26.48",
    "aAdresse": "1 Ridgeway Street",
    "aCodePostal": null,
    "aFrDept": 76,
    "aVille": "1.141.105.164",
    "aRegion": "Devpoint",
    "aLong": "-87.4",
    "aLat": "14.51667",
    "aLocM": "47.63543"
  }, {
    "aId": 68,
    "aIdServer": 19,
    "aCode": "04780",
    "aFkClientId": 71,
    "aFkClientAppliId": 28,
    "aFkCheminId": 90,
    "aFkCheminAppliId": 17,
    "aPays": "China",
    "aPrenom": "Chesterman",
    "aNom": "Shea",
    "aSociete": "48.90.135.112",
    "aAdresse": "141 Namekagon Park",
    "aCodePostal": null,
    "aFrDept": 26,
    "aVille": "176.253.33.105",
    "aRegion": "Flipbug",
    "aLong": "121.105",
    "aLat": "31.65182",
    "aLocM": "47.28395"
  }, {
    "aId": 69,
    "aIdServer": 24,
    "aCode": "24",
    "aFkClientId": 43,
    "aFkClientAppliId": 99,
    "aFkCheminId": 69,
    "aFkCheminAppliId": 50,
    "aPays": "China",
    "aPrenom": "Jostan",
    "aNom": "Judy",
    "aSociete": "47.211.176.241",
    "aAdresse": "44 Lighthouse Bay Way",
    "aCodePostal": null,
    "aFrDept": 74,
    "aVille": "108.228.131.62",
    "aRegion": "Kwilith",
    "aLong": "107.70742",
    "aLat": "34.31053",
    "aLocM": "39.71184"
  }, {
    "aId": 70,
    "aIdServer": 64,
    "aCode": "173",
    "aFkClientId": 19,
    "aFkClientAppliId": 99,
    "aFkCheminId": 44,
    "aFkCheminAppliId": 60,
    "aPays": "Indonesia",
    "aPrenom": "Abbys",
    "aNom": "Iain",
    "aSociete": "151.163.215.47",
    "aAdresse": "1 Debs Center",
    "aCodePostal": null,
    "aFrDept": 41,
    "aVille": "172.140.174.70",
    "aRegion": "Eadel",
    "aLong": "107.8313",
    "aLat": "-7.2955",
    "aLocM": "13.96242"
  }, {
    "aId": 71,
    "aIdServer": 27,
    "aCode": "1827",
    "aFkClientId": 71,
    "aFkClientAppliId": 87,
    "aFkCheminId": 34,
    "aFkCheminAppliId": 48,
    "aPays": "Indonesia",
    "aPrenom": "Asche",
    "aNom": "Milo",
    "aSociete": "206.54.96.105",
    "aAdresse": "944 Maple Wood Hill",
    "aCodePostal": null,
    "aFrDept": 15,
    "aVille": "71.170.212.247",
    "aRegion": "Snaptags",
    "aLong": "112.4381",
    "aLat": "-6.9199",
    "aLocM": "26.99257"
  }, {
    "aId": 72,
    "aIdServer": 88,
    "aCode": "0611",
    "aFkClientId": 16,
    "aFkClientAppliId": 82,
    "aFkCheminId": 58,
    "aFkCheminAppliId": 8,
    "aPays": "Indonesia",
    "aPrenom": "Robjant",
    "aNom": "Elmer",
    "aSociete": "157.195.49.129",
    "aAdresse": "145 Brentwood Court",
    "aCodePostal": null,
    "aFrDept": 81,
    "aVille": "15.228.217.3",
    "aRegion": "Babblestorm",
    "aLong": "119.6441",
    "aLat": "-9.6161",
    "aLocM": "43.07121"
  }, {
    "aId": 73,
    "aIdServer": 80,
    "aCode": "0",
    "aFkClientId": 35,
    "aFkClientAppliId": 66,
    "aFkCheminId": 12,
    "aFkCheminAppliId": 19,
    "aPays": "Philippines",
    "aPrenom": "Lackinton",
    "aNom": "Jordain",
    "aSociete": "168.62.63.100",
    "aAdresse": "41 Golf Course Junction",
    "aCodePostal": "6027",
    "aFrDept": 23,
    "aVille": "209.168.83.113",
    "aRegion": "Oyoloo",
    "aLong": "123.3069",
    "aLat": "9.5276",
    "aLocM": "42.4219"
  }, {
    "aId": 74,
    "aIdServer": 39,
    "aCode": "9629",
    "aFkClientId": 14,
    "aFkClientAppliId": 10,
    "aFkCheminId": 20,
    "aFkCheminAppliId": 77,
    "aPays": "Russia",
    "aPrenom": "Faldo",
    "aNom": "Catlee",
    "aSociete": "44.112.84.189",
    "aAdresse": "8340 Annamark Street",
    "aCodePostal": "309999",
    "aFrDept": 18,
    "aVille": "97.7.218.31",
    "aRegion": "Gigaclub",
    "aLong": "38.1067",
    "aLat": "50.2035",
    "aLocM": "8.87443"
  }, {
    "aId": 75,
    "aIdServer": 91,
    "aCode": "63446",
    "aFkClientId": 82,
    "aFkClientAppliId": 56,
    "aFkCheminId": 87,
    "aFkCheminAppliId": 92,
    "aPays": "Luxembourg",
    "aPrenom": "Whatmough",
    "aNom": "Aleda",
    "aSociete": "44.184.74.173",
    "aAdresse": "48125 Lunder Road",
    "aCodePostal": "L-9674",
    "aFrDept": 58,
    "aVille": "211.193.234.165",
    "aRegion": "Skynoodle",
    "aLong": "5.96833",
    "aLat": "49.92167",
    "aLocM": "52.20318"
  }, {
    "aId": 76,
    "aIdServer": 72,
    "aCode": "351",
    "aFkClientId": 31,
    "aFkClientAppliId": 45,
    "aFkCheminId": 3,
    "aFkCheminAppliId": 39,
    "aPays": "Indonesia",
    "aPrenom": "Wimbush",
    "aNom": "Aveline",
    "aSociete": "241.13.143.174",
    "aAdresse": "432 Debra Plaza",
    "aCodePostal": null,
    "aFrDept": 77,
    "aVille": "8.201.249.172",
    "aRegion": "Browsecat",
    "aLong": "120.5592",
    "aLat": "-10.2209",
    "aLocM": "-22.78889"
  }, {
    "aId": 77,
    "aIdServer": 53,
    "aCode": "1052",
    "aFkClientId": 90,
    "aFkClientAppliId": 87,
    "aFkCheminId": 24,
    "aFkCheminAppliId": 13,
    "aPays": "Philippines",
    "aPrenom": "Mathan",
    "aNom": "Joete",
    "aSociete": "73.1.216.143",
    "aAdresse": "896 East Center",
    "aCodePostal": "8504",
    "aFrDept": 13,
    "aVille": "182.162.164.104",
    "aRegion": "Vidoo",
    "aLong": "124.425",
    "aLat": "12.5223",
    "aLocM": "59.35"
  }, {
    "aId": 78,
    "aIdServer": 8,
    "aCode": "65",
    "aFkClientId": 93,
    "aFkClientAppliId": 88,
    "aFkCheminId": 74,
    "aFkCheminAppliId": 51,
    "aPays": "Lebanon",
    "aPrenom": "Ferrai",
    "aNom": "Donaugh",
    "aSociete": "172.83.189.32",
    "aAdresse": "62666 Blackbird Way",
    "aCodePostal": null,
    "aFrDept": 6,
    "aVille": "20.88.40.159",
    "aRegion": "Zooxo",
    "aLong": "35.43333",
    "aLat": "33.11944",
    "aLocM": "34.77336"
  }, {
    "aId": 79,
    "aIdServer": 55,
    "aCode": "49",
    "aFkClientId": 57,
    "aFkClientAppliId": 4,
    "aFkCheminId": 92,
    "aFkCheminAppliId": 78,
    "aPays": "Portugal",
    "aPrenom": "McCombe",
    "aNom": "Hermie",
    "aSociete": "229.20.161.107",
    "aAdresse": "39 Village Lane",
    "aCodePostal": "2730-060",
    "aFrDept": 100,
    "aVille": "248.228.79.85",
    "aRegion": "Buzzdog",
    "aLong": "-9.2833",
    "aLat": "38.7333",
    "aLocM": "19.68925"
  }, {
    "aId": 80,
    "aIdServer": 51,
    "aCode": "29061",
    "aFkClientId": 81,
    "aFkClientAppliId": 37,
    "aFkCheminId": 64,
    "aFkCheminAppliId": 27,
    "aPays": "Croatia",
    "aPrenom": "Sacher",
    "aNom": "Bernadene",
    "aSociete": "56.154.90.67",
    "aAdresse": "8 Merchant Trail",
    "aCodePostal": "47240",
    "aFrDept": 51,
    "aVille": "152.140.39.46",
    "aRegion": "Mynte",
    "aLong": "15.58944",
    "aLat": "45.11083",
    "aLocM": "5.63506"
  }, {
    "aId": 81,
    "aIdServer": 1,
    "aCode": "0",
    "aFkClientId": 17,
    "aFkClientAppliId": 1,
    "aFkCheminId": 94,
    "aFkCheminAppliId": 86,
    "aPays": "Peru",
    "aPrenom": "Hambridge",
    "aNom": "Roman",
    "aSociete": "255.132.206.197",
    "aAdresse": "09576 Carberry Point",
    "aCodePostal": null,
    "aFrDept": 67,
    "aVille": "218.142.249.187",
    "aRegion": "Demimbu",
    "aLong": "-75.31667",
    "aLat": "-13.26667",
    "aLocM": "30.47028"
  }, {
    "aId": 82,
    "aIdServer": 3,
    "aCode": "1033",
    "aFkClientId": 60,
    "aFkClientAppliId": 91,
    "aFkCheminId": 97,
    "aFkCheminAppliId": 1,
    "aPays": "Syria",
    "aPrenom": "Cortin",
    "aNom": "Alfred",
    "aSociete": "173.173.238.36",
    "aAdresse": "72 Michigan Crossing",
    "aCodePostal": null,
    "aFrDept": 53,
    "aVille": "30.196.47.114",
    "aRegion": "Yambee",
    "aLong": "36.25453",
    "aLat": "32.8706",
    "aLocM": "56.49903"
  }, {
    "aId": 83,
    "aIdServer": 16,
    "aCode": "8",
    "aFkClientId": 70,
    "aFkClientAppliId": 14,
    "aFkCheminId": 27,
    "aFkCheminAppliId": 28,
    "aPays": "Brazil",
    "aPrenom": "Beachem",
    "aNom": "Patric",
    "aSociete": "152.43.246.98",
    "aAdresse": "90 4th Trail",
    "aCodePostal": "12940-000",
    "aFrDept": 65,
    "aVille": "180.116.156.201",
    "aRegion": "Tazz",
    "aLong": "-46.55028",
    "aLat": "-23.11694",
    "aLocM": "-7.2606"
  }, {
    "aId": 84,
    "aIdServer": 48,
    "aCode": "6368",
    "aFkClientId": 46,
    "aFkClientAppliId": 61,
    "aFkCheminId": 12,
    "aFkCheminAppliId": 64,
    "aPays": "France",
    "aPrenom": "O' Hogan",
    "aNom": "Gardner",
    "aSociete": "4.107.155.125",
    "aAdresse": "8 Fair Oaks Circle",
    "aCodePostal": "78067 CEDEX",
    "aFrDept": 25,
    "aVille": "210.80.99.119",
    "aRegion": "Mita",
    "aLong": "2.0191",
    "aLat": "48.7732",
    "aLocM": "46.66667"
  }, {
    "aId": 85,
    "aIdServer": 84,
    "aCode": "55118",
    "aFkClientId": 36,
    "aFkClientAppliId": 68,
    "aFkCheminId": 27,
    "aFkCheminAppliId": 18,
    "aPays": "Philippines",
    "aPrenom": "Bridgstock",
    "aNom": "Sayer",
    "aSociete": "94.133.133.179",
    "aAdresse": "65803 Randy Trail",
    "aCodePostal": "6718",
    "aFrDept": 14,
    "aVille": "172.207.184.8",
    "aRegion": "Zoombeat",
    "aLong": "124.9425",
    "aLat": "11.4502",
    "aLocM": "-2.3715"
  }, {
    "aId": 86,
    "aIdServer": 100,
    "aCode": "0",
    "aFkClientId": 5,
    "aFkClientAppliId": 20,
    "aFkCheminId": 8,
    "aFkCheminAppliId": 80,
    "aPays": "Cuba",
    "aPrenom": "Jacson",
    "aNom": "Rafaelita",
    "aSociete": "79.82.202.160",
    "aAdresse": "8 Karstens Street",
    "aCodePostal": null,
    "aFrDept": 5,
    "aVille": "28.146.205.46",
    "aRegion": "Tekfly",
    "aLong": "-78.42833",
    "aLat": "21.94694",
    "aLocM": "41.5333"
  }, {
    "aId": 87,
    "aIdServer": 66,
    "aCode": "3",
    "aFkClientId": 26,
    "aFkClientAppliId": 61,
    "aFkCheminId": 55,
    "aFkCheminAppliId": 69,
    "aPays": "Japan",
    "aPrenom": "Janca",
    "aNom": "Isadore",
    "aSociete": "87.29.163.181",
    "aAdresse": "3 Arizona Place",
    "aCodePostal": "677-0043",
    "aFrDept": 46,
    "aVille": "110.162.64.93",
    "aRegion": "Cogilith",
    "aLong": "139.6856",
    "aLat": "35.81251",
    "aLocM": "43.51417"
  }, {
    "aId": 88,
    "aIdServer": 36,
    "aCode": "121",
    "aFkClientId": 88,
    "aFkClientAppliId": 16,
    "aFkCheminId": 45,
    "aFkCheminAppliId": 99,
    "aPays": "Colombia",
    "aPrenom": "Jacomb",
    "aNom": "Dallon",
    "aSociete": "35.230.246.47",
    "aAdresse": "56491 Pierstorff Parkway",
    "aCodePostal": "250058",
    "aFrDept": 21,
    "aVille": "242.253.247.212",
    "aRegion": "Skalith",
    "aLong": "-74.21682",
    "aLat": "4.57937",
    "aLocM": "-30.01444"
  }, {
    "aId": 89,
    "aIdServer": 80,
    "aCode": "2346",
    "aFkClientId": 100,
    "aFkClientAppliId": 39,
    "aFkCheminId": 23,
    "aFkCheminAppliId": 2,
    "aPays": "Luxembourg",
    "aPrenom": "Tenpenny",
    "aNom": "Goran",
    "aSociete": "185.136.248.113",
    "aAdresse": "5 Bayside Lane",
    "aCodePostal": "L-3755",
    "aFrDept": 51,
    "aVille": "175.167.212.161",
    "aRegion": "Centimia",
    "aLong": "6.03306",
    "aLat": "49.46083",
    "aLocM": "28.65148"
  }, {
    "aId": 90,
    "aIdServer": 26,
    "aCode": "46",
    "aFkClientId": 83,
    "aFkClientAppliId": 21,
    "aFkCheminId": 12,
    "aFkCheminAppliId": 90,
    "aPays": "Czech Republic",
    "aPrenom": "Mendes",
    "aNom": "Idelle",
    "aSociete": "149.215.45.153",
    "aAdresse": "922 Trailsway Place",
    "aCodePostal": "547 01",
    "aFrDept": 42,
    "aVille": "98.170.168.67",
    "aRegion": "Gigashots",
    "aLong": "16.16289",
    "aLat": "50.4167",
    "aLocM": "27.37889"
  }, {
    "aId": 91,
    "aIdServer": 100,
    "aCode": "42568",
    "aFkClientId": 46,
    "aFkClientAppliId": 42,
    "aFkCheminId": 1,
    "aFkCheminAppliId": 6,
    "aPays": "China",
    "aPrenom": "Baude",
    "aNom": "Danni",
    "aSociete": "170.224.232.222",
    "aAdresse": "9 Lien Hill",
    "aCodePostal": null,
    "aFrDept": 50,
    "aVille": "243.34.200.154",
    "aRegion": "Kazio",
    "aLong": "108.90779",
    "aLat": "31.37247",
    "aLocM": "40.92598"
  }, {
    "aId": 92,
    "aIdServer": 70,
    "aCode": "48",
    "aFkClientId": 14,
    "aFkClientAppliId": 33,
    "aFkCheminId": 58,
    "aFkCheminAppliId": 74,
    "aPays": "France",
    "aPrenom": "Duckerin",
    "aNom": "Abby",
    "aSociete": "71.159.0.116",
    "aAdresse": "78552 Manitowish Drive",
    "aCodePostal": "51039 CEDEX",
    "aFrDept": 42,
    "aVille": "119.81.223.148",
    "aRegion": "InnoZ",
    "aLong": "4.3672",
    "aLat": "48.9539",
    "aLocM": "49.0389"
  }, {
    "aId": 93,
    "aIdServer": 77,
    "aCode": "9717",
    "aFkClientId": 17,
    "aFkClientAppliId": 50,
    "aFkCheminId": 87,
    "aFkCheminAppliId": 64,
    "aPays": "Poland",
    "aPrenom": "Shekle",
    "aNom": "Levy",
    "aSociete": "108.16.55.37",
    "aAdresse": "18 Valley Edge Drive",
    "aCodePostal": "47-330",
    "aFrDept": 91,
    "aVille": "178.64.107.82",
    "aRegion": "Riffwire",
    "aLong": "18.1368",
    "aLat": "50.39189",
    "aLocM": "14.56739"
  }, {
    "aId": 94,
    "aIdServer": 50,
    "aCode": "02664",
    "aFkClientId": 66,
    "aFkClientAppliId": 39,
    "aFkCheminId": 30,
    "aFkCheminAppliId": 35,
    "aPays": "Russia",
    "aPrenom": "Ploughwright",
    "aNom": "Irv",
    "aSociete": "64.98.49.177",
    "aAdresse": "85727 Beilfuss Park",
    "aCodePostal": "242622",
    "aFrDept": 26,
    "aVille": "200.255.50.140",
    "aRegion": "Twimm",
    "aLong": "34.38847",
    "aLat": "53.50332",
    "aLocM": "54.26931"
  }, {
    "aId": 95,
    "aIdServer": 40,
    "aCode": "5",
    "aFkClientId": 90,
    "aFkClientAppliId": 38,
    "aFkCheminId": 84,
    "aFkCheminAppliId": 33,
    "aPays": "Philippines",
    "aPrenom": "Newarte",
    "aNom": "Orlan",
    "aSociete": "135.192.35.72",
    "aAdresse": "89863 Fuller Point",
    "aCodePostal": "4107",
    "aFrDept": 3,
    "aVille": "58.59.188.194",
    "aRegion": "Gigazoom",
    "aLong": "123.3085",
    "aLat": "10.51596",
    "aLocM": "48.8333"
  }, {
    "aId": 96,
    "aIdServer": 93,
    "aCode": "755",
    "aFkClientId": 74,
    "aFkClientAppliId": 25,
    "aFkCheminId": 91,
    "aFkCheminAppliId": 61,
    "aPays": "China",
    "aPrenom": "Chapellow",
    "aNom": "Locke",
    "aSociete": "47.175.225.32",
    "aAdresse": "642 Dwight Avenue",
    "aCodePostal": null,
    "aFrDept": 58,
    "aVille": "159.184.242.126",
    "aRegion": "Reallinks",
    "aLong": "116.46331",
    "aLat": "24.81942",
    "aLocM": "39.8725"
  }, {
    "aId": 97,
    "aIdServer": 100,
    "aCode": "14",
    "aFkClientId": 97,
    "aFkClientAppliId": 73,
    "aFkCheminId": 21,
    "aFkCheminAppliId": 15,
    "aPays": "Indonesia",
    "aPrenom": "MacCaig",
    "aNom": "Tamera",
    "aSociete": "224.211.92.16",
    "aAdresse": "6717 Northridge Trail",
    "aCodePostal": null,
    "aFrDept": 74,
    "aVille": "178.239.46.128",
    "aRegion": "Kazu",
    "aLong": "119.6237",
    "aLat": "-9.6099",
    "aLocM": "38.26667"
  }, {
    "aId": 98,
    "aIdServer": 89,
    "aCode": "148",
    "aFkClientId": 77,
    "aFkClientAppliId": 44,
    "aFkCheminId": 45,
    "aFkCheminAppliId": 19,
    "aPays": "Mongolia",
    "aPrenom": "Eble",
    "aNom": "Evaleen",
    "aSociete": "170.227.137.125",
    "aAdresse": "5 Union Avenue",
    "aCodePostal": null,
    "aFrDept": 57,
    "aVille": "193.30.109.10",
    "aRegion": "Youfeed",
    "aLong": "100.71806",
    "aLat": "46.19444",
    "aLocM": "32.40314"
  }, {
    "aId": 99,
    "aIdServer": 9,
    "aCode": "2",
    "aFkClientId": 96,
    "aFkClientAppliId": 33,
    "aFkCheminId": 44,
    "aFkCheminAppliId": 91,
    "aPays": "China",
    "aPrenom": "McNish",
    "aNom": "Idalina",
    "aSociete": "155.130.56.156",
    "aAdresse": "8 Hanson Avenue",
    "aCodePostal": null,
    "aFrDept": 35,
    "aVille": "195.10.61.214",
    "aRegion": "Realcube",
    "aLong": "96.949",
    "aLat": "36.25154",
    "aLocM": "55.4297"
  }, {
    "aId": 100,
    "aIdServer": 59,
    "aCode": "7",
    "aFkClientId": 94,
    "aFkClientAppliId": 64,
    "aFkCheminId": 77,
    "aFkCheminAppliId": 69,
    "aPays": "France",
    "aPrenom": "Staning",
    "aNom": "Warner",
    "aSociete": "249.227.121.189",
    "aAdresse": "2 Atwood Parkway",
    "aCodePostal": "14008 CEDEX 1",
    "aFrDept": 20,
    "aVille": "134.89.232.180",
    "aRegion": "Kwideo",
    "aLong": "-0.3591",
    "aLat": "49.1859",
    "aLocM": "24.61471"
  }
]